{"type":"FeatureCollection","features":[{"type":"Feature","geometry":{"type":"Point","coordinates":[-86.3,32.3668]},"properties":{"name":"Montgomery","state":"Alabama","capital":true,"tier":2}},{"type":"Feature","geometry":{"type":"Point","coordinates":[-86.8025,33.5207]},"properties":{"name":"Birmingham","state":"Alabama","capital":false,"tier":2}},{"type":"Feature","geometry":{"type":"Point","coordinates":[-86.5861,34.7304]},"properties":{"name":"Huntsville","state":"Alabama","capital":false,"tier":3}},{"type":"Feature","geometry":{"type":"Point","coordinates":[-88.0431,30.6954]},"properties":{"name":"Mobile","state":"Alabama","capital":false,"tier":2}},{"type":"Feature","geometry":{"type":"Point","coordinates":[-112.074,33.4484]},"properties":{"name":"Phoenix","state":"Arizona","capital":true,"tier":1}},{"type":"Feature","geometry":{"type":"Point","coordinates":[-110.9747,32.2226]},"properties":{"name":"Tucson","state":"Arizona","capital":false,"tier":2}},{"type":"Feature","geometry":{"type":"Point","coordinates":[-111.8315,33.4152]},"properties":{"name":"Mesa","state":"Arizona","capital":false,"tier":2}},{"type":"Feature","geometry":{"type":"Point","coordinates":[-111.9261,33.4942]},"properties":{"name":"Scottsdale","state":"Arizona","capital":false,"tier":3}},{"type":"Feature","geometry":{"type":"Point","coordinates":[-92.2896,34.7465]},"properties":{"name":"Little Rock","state":"Arkansas","capital":true,"tier":2}},{"type":"Feature","geometry":{"type":"Point","coordinates":[-94.1574,36.0626]},"properties":{"name":"Fayetteville","state":"Arkansas","capital":false,"tier":3}},{"type":"Feature","geometry":{"type":"Point","coordinates":[-94.3985,35.3859]},"properties":{"name":"Fort Smith","state":"Arkansas","capital":false,"tier":3}},{"type":"Feature","geometry":{"type":"Point","coordinates":[-121.4944,38.5816]},"properties":{"name":"Sacramento","state":"California","capital":true,"tier":2}},{"type":"Feature","geometry":{"type":"Point","coordinates":[-118.2437,34.0522]},"properties":{"name":"Los Angeles","state":"California","capital":false,"tier":1}},{"type":"Feature","geometry":{"type":"Point","coordinates":[-122.4194,37.7749]},"properties":{"name":"San Francisco","state":"California","capital":false,"tier":1}},{"type":"Feature","geometry":{"type":"Point","coordinates":[-117.1611,32.7157]},"properties":{"name":"San Diego","state":"California","capital":false,"tier":1}},{"type":"Feature","geometry":{"type":"Point","coordinates":[-121.8863,37.3382]},"properties":{"name":"San Jose","state":"California","capital":false,"tier":1}},{"type":"Feature","geometry":{"type":"Point","coordinates":[-119.7871,36.7378]},"properties":{"name":"Fresno","state":"California","capital":false,"tier":2}},{"type":"Feature","geometry":{"type":"Point","coordinates":[-122.2711,37.8044]},"properties":{"name":"Oakland","state":"California","capital":false,"tier":2}},{"type":"Feature","geometry":{"type":"Point","coordinates":[-104.9903,39.7392]},"properties":{"name":"Denver","state":"Colorado","capital":true,"tier":1}},{"type":"Feature","geometry":{"type":"Point","coordinates":[-104.8214,38.8339]},"properties":{"name":"Colorado Springs","state":"Colorado","capital":false,"tier":2}},{"type":"Feature","geometry":{"type":"Point","coordinates":[-104.8319,39.7294]},"properties":{"name":"Aurora","state":"Colorado","capital":false,"tier":3}},{"type":"Feature","geometry":{"type":"Point","coordinates":[-72.6851,41.7658]},"properties":{"name":"Hartford","state":"Connecticut","capital":true,"tier":2}},{"type":"Feature","geometry":{"type":"Point","coordinates":[-73.1952,41.1865]},"properties":{"name":"Bridgeport","state":"Connecticut","capital":false,"tier":3}},{"type":"Feature","geometry":{"type":"Point","coordinates":[-72.9279,41.3083]},"properties":{"name":"New Haven","state":"Connecticut","capital":false,"tier":3}},{"type":"Feature","geometry":{"type":"Point","coordinates":[-75.5277,39.1582]},"properties":{"name":"Dover","state":"Delaware","capital":true,"tier":3}},{"type":"Feature","geometry":{"type":"Point","coordinates":[-75.5398,39.7391]},"properties":{"name":"Wilmington","state":"Delaware","capital":false,"tier":2}},{"type":"Feature","geometry":{"type":"Point","coordinates":[-84.2807,30.4383]},"properties":{"name":"Tallahassee","state":"Florida","capital":true,"tier":2}},{"type":"Feature","geometry":{"type":"Point","coordinates":[-81.6557,30.3322]},"properties":{"name":"Jacksonville","state":"Florida","capital":false,"tier":1}},{"type":"Feature","geometry":{"type":"Point","coordinates":[-80.1918,25.7617]},"properties":{"name":"Miami","state":"Florida","capital":false,"tier":1}},{"type":"Feature","geometry":{"type":"Point","coordinates":[-82.4572,27.9506]},"properties":{"name":"Tampa","state":"Florida","capital":false,"tier":1}},{"type":"Feature","geometry":{"type":"Point","coordinates":[-81.3792,28.5383]},"properties":{"name":"Orlando","state":"Florida","capital":false,"tier":2}},{"type":"Feature","geometry":{"type":"Point","coordinates":[-82.6403,27.7676]},"properties":{"name":"St. Petersburg","state":"Florida","capital":false,"tier":3}},{"type":"Feature","geometry":{"type":"Point","coordinates":[-84.388,33.749]},"properties":{"name":"Atlanta","state":"Georgia","capital":true,"tier":1}},{"type":"Feature","geometry":{"type":"Point","coordinates":[-81.0998,32.0809]},"properties":{"name":"Savannah","state":"Georgia","capital":false,"tier":2}},{"type":"Feature","geometry":{"type":"Point","coordinates":[-81.9748,33.4735]},"properties":{"name":"Augusta","state":"Georgia","capital":false,"tier":3}},{"type":"Feature","geometry":{"type":"Point","coordinates":[-116.2023,43.615]},"properties":{"name":"Boise","state":"Idaho","capital":true,"tier":2}},{"type":"Feature","geometry":{"type":"Point","coordinates":[-112.0341,43.4917]},"properties":{"name":"Idaho Falls","state":"Idaho","capital":false,"tier":3}},{"type":"Feature","geometry":{"type":"Point","coordinates":[-89.6501,39.7817]},"properties":{"name":"Springfield","state":"Illinois","capital":true,"tier":2}},{"type":"Feature","geometry":{"type":"Point","coordinates":[-87.6298,41.8781]},"properties":{"name":"Chicago","state":"Illinois","capital":false,"tier":1}},{"type":"Feature","geometry":{"type":"Point","coordinates":[-88.3201,41.7606]},"properties":{"name":"Aurora","state":"Illinois","capital":false,"tier":3}},{"type":"Feature","geometry":{"type":"Point","coordinates":[-89.094,42.2711]},"properties":{"name":"Rockford","state":"Illinois","capital":false,"tier":3}},{"type":"Feature","geometry":{"type":"Point","coordinates":[-86.1581,39.7684]},"properties":{"name":"Indianapolis","state":"Indiana","capital":true,"tier":1}},{"type":"Feature","geometry":{"type":"Point","coordinates":[-85.1394,41.0793]},"properties":{"name":"Fort Wayne","state":"Indiana","capital":false,"tier":2}},{"type":"Feature","geometry":{"type":"Point","coordinates":[-87.5711,37.9716]},"properties":{"name":"Evansville","state":"Indiana","capital":false,"tier":3}},{"type":"Feature","geometry":{"type":"Point","coordinates":[-93.6091,41.5868]},"properties":{"name":"Des Moines","state":"Iowa","capital":true,"tier":2}},{"type":"Feature","geometry":{"type":"Point","coordinates":[-91.6708,41.9779]},"properties":{"name":"Cedar Rapids","state":"Iowa","capital":false,"tier":3}},{"type":"Feature","geometry":{"type":"Point","coordinates":[-90.5776,41.5236]},"properties":{"name":"Davenport","state":"Iowa","capital":false,"tier":3}},{"type":"Feature","geometry":{"type":"Point","coordinates":[-95.689,39.0473]},"properties":{"name":"Topeka","state":"Kansas","capital":true,"tier":3}},{"type":"Feature","geometry":{"type":"Point","coordinates":[-97.3301,37.6872]},"properties":{"name":"Wichita","state":"Kansas","capital":false,"tier":2}},{"type":"Feature","geometry":{"type":"Point","coordinates":[-94.6275,39.1141]},"properties":{"name":"Kansas City","state":"Kansas","capital":false,"tier":2}},{"type":"Feature","geometry":{"type":"Point","coordinates":[-84.8733,38.2009]},"properties":{"name":"Frankfort","state":"Kentucky","capital":true,"tier":3}},{"type":"Feature","geometry":{"type":"Point","coordinates":[-85.7585,38.2527]},"properties":{"name":"Louisville","state":"Kentucky","capital":false,"tier":1}},{"type":"Feature","geometry":{"type":"Point","coordinates":[-84.5037,38.0406]},"properties":{"name":"Lexington","state":"Kentucky","capital":false,"tier":2}},{"type":"Feature","geometry":{"type":"Point","coordinates":[-91.1403,30.4515]},"properties":{"name":"Baton Rouge","state":"Louisiana","capital":true,"tier":2}},{"type":"Feature","geometry":{"type":"Point","coordinates":[-90.0715,29.9511]},"properties":{"name":"New Orleans","state":"Louisiana","capital":false,"tier":1}},{"type":"Feature","geometry":{"type":"Point","coordinates":[-93.7502,32.5252]},"properties":{"name":"Shreveport","state":"Louisiana","capital":false,"tier":3}},{"type":"Feature","geometry":{"type":"Point","coordinates":[-69.7795,44.3106]},"properties":{"name":"Augusta","state":"Maine","capital":true,"tier":3}},{"type":"Feature","geometry":{"type":"Point","coordinates":[-70.2553,43.6591]},"properties":{"name":"Portland","state":"Maine","capital":false,"tier":2}},{"type":"Feature","geometry":{"type":"Point","coordinates":[-76.4922,38.9784]},"properties":{"name":"Annapolis","state":"Maryland","capital":true,"tier":3}},{"type":"Feature","geometry":{"type":"Point","coordinates":[-76.6122,39.2904]},"properties":{"name":"Baltimore","state":"Maryland","capital":false,"tier":1}},{"type":"Feature","geometry":{"type":"Point","coordinates":[-71.0589,42.3601]},"properties":{"name":"Boston","state":"Massachusetts","capital":true,"tier":1}},{"type":"Feature","geometry":{"type":"Point","coordinates":[-71.8023,42.2626]},"properties":{"name":"Worcester","state":"Massachusetts","capital":false,"tier":3}},{"type":"Feature","geometry":{"type":"Point","coordinates":[-72.5898,42.1015]},"properties":{"name":"Springfield","state":"Massachusetts","capital":false,"tier":3}},{"type":"Feature","geometry":{"type":"Point","coordinates":[-84.5555,42.7325]},"properties":{"name":"Lansing","state":"Michigan","capital":true,"tier":2}},{"type":"Feature","geometry":{"type":"Point","coordinates":[-83.0458,42.3314]},"properties":{"name":"Detroit","state":"Michigan","capital":false,"tier":1}},{"type":"Feature","geometry":{"type":"Point","coordinates":[-85.6681,42.9634]},"properties":{"name":"Grand Rapids","state":"Michigan","capital":false,"tier":2}},{"type":"Feature","geometry":{"type":"Point","coordinates":[-83.743,42.2808]},"properties":{"name":"Ann Arbor","state":"Michigan","capital":false,"tier":3}},{"type":"Feature","geometry":{"type":"Point","coordinates":[-93.09,44.9537]},"properties":{"name":"St. Paul","state":"Minnesota","capital":true,"tier":2}},{"type":"Feature","geometry":{"type":"Point","coordinates":[-93.265,44.9778]},"properties":{"name":"Minneapolis","state":"Minnesota","capital":false,"tier":1}},{"type":"Feature","geometry":{"type":"Point","coordinates":[-92.4802,44.0121]},"properties":{"name":"Rochester","state":"Minnesota","capital":false,"tier":3}},{"type":"Feature","geometry":{"type":"Point","coordinates":[-90.1848,32.2988]},"properties":{"name":"Jackson","state":"Mississippi","capital":true,"tier":2}},{"type":"Feature","geometry":{"type":"Point","coordinates":[-89.0928,30.3674]},"properties":{"name":"Gulfport","state":"Mississippi","capital":false,"tier":3}},{"type":"Feature","geometry":{"type":"Point","coordinates":[-88.885,30.396]},"properties":{"name":"Biloxi","state":"Mississippi","capital":false,"tier":3}},{"type":"Feature","geometry":{"type":"Point","coordinates":[-92.1735,38.5767]},"properties":{"name":"Jefferson City","state":"Missouri","capital":true,"tier":3}},{"type":"Feature","geometry":{"type":"Point","coordinates":[-94.5786,39.0997]},"properties":{"name":"Kansas City","state":"Missouri","capital":false,"tier":1}},{"type":"Feature","geometry":{"type":"Point","coordinates":[-90.1994,38.627]},"properties":{"name":"St. Louis","state":"Missouri","capital":false,"tier":1}},{"type":"Feature","geometry":{"type":"Point","coordinates":[-93.2923,37.209]},"properties":{"name":"Springfield","state":"Missouri","capital":false,"tier":3}},{"type":"Feature","geometry":{"type":"Point","coordinates":[-112.0391,46.5891]},"properties":{"name":"Helena","state":"Montana","capital":true,"tier":3}},{"type":"Feature","geometry":{"type":"Point","coordinates":[-108.5007,45.7833]},"properties":{"name":"Billings","state":"Montana","capital":false,"tier":2}},{"type":"Feature","geometry":{"type":"Point","coordinates":[-114.0093,46.8721]},"properties":{"name":"Missoula","state":"Montana","capital":false,"tier":3}},{"type":"Feature","geometry":{"type":"Point","coordinates":[-96.6859,40.8136]},"properties":{"name":"Lincoln","state":"Nebraska","capital":true,"tier":2}},{"type":"Feature","geometry":{"type":"Point","coordinates":[-95.9345,41.2565]},"properties":{"name":"Omaha","state":"Nebraska","capital":false,"tier":2}},{"type":"Feature","geometry":{"type":"Point","coordinates":[-119.7674,39.1638]},"properties":{"name":"Carson City","state":"Nevada","capital":true,"tier":3}},{"type":"Feature","geometry":{"type":"Point","coordinates":[-115.1398,36.1699]},"properties":{"name":"Las Vegas","state":"Nevada","capital":false,"tier":1}},{"type":"Feature","geometry":{"type":"Point","coordinates":[-119.8138,39.5296]},"properties":{"name":"Reno","state":"Nevada","capital":false,"tier":2}},{"type":"Feature","geometry":{"type":"Point","coordinates":[-71.5376,43.2081]},"properties":{"name":"Concord","state":"New Hampshire","capital":true,"tier":3}},{"type":"Feature","geometry":{"type":"Point","coordinates":[-71.4548,42.9956]},"properties":{"name":"Manchester","state":"New Hampshire","capital":false,"tier":2}},{"type":"Feature","geometry":{"type":"Point","coordinates":[-74.7429,40.2171]},"properties":{"name":"Trenton","state":"New Jersey","capital":true,"tier":3}},{"type":"Feature","geometry":{"type":"Point","coordinates":[-74.1724,40.7357]},"properties":{"name":"Newark","state":"New Jersey","capital":false,"tier":2}},{"type":"Feature","geometry":{"type":"Point","coordinates":[-74.0431,40.7178]},"properties":{"name":"Jersey City","state":"New Jersey","capital":false,"tier":3}},{"type":"Feature","geometry":{"type":"Point","coordinates":[-105.9378,35.687]},"properties":{"name":"Santa Fe","state":"New Mexico","capital":true,"tier":2}},{"type":"Feature","geometry":{"type":"Point","coordinates":[-106.6504,35.0844]},"properties":{"name":"Albuquerque","state":"New Mexico","capital":false,"tier":2}},{"type":"Feature","geometry":{"type":"Point","coordinates":[-106.7637,32.3199]},"properties":{"name":"Las Cruces","state":"New Mexico","capital":false,"tier":3}},{"type":"Feature","geometry":{"type":"Point","coordinates":[-73.7562,42.6526]},"properties":{"name":"Albany","state":"New York","capital":true,"tier":2}},{"type":"Feature","geometry":{"type":"Point","coordinates":[-74.006,40.7128]},"properties":{"name":"New York","state":"New York","capital":false,"tier":1}},{"type":"Feature","geometry":{"type":"Point","coordinates":[-78.8784,42.8864]},"properties":{"name":"Buffalo","state":"New York","capital":false,"tier":2}},{"type":"Feature","geometry":{"type":"Point","coordinates":[-77.6109,43.1566]},"properties":{"name":"Rochester","state":"New York","capital":false,"tier":2}},{"type":"Feature","geometry":{"type":"Point","coordinates":[-76.1474,43.0481]},"properties":{"name":"Syracuse","state":"New York","capital":false,"tier":3}},{"type":"Feature","geometry":{"type":"Point","coordinates":[-78.6382,35.7796]},"properties":{"name":"Raleigh","state":"North Carolina","capital":true,"tier":1}},{"type":"Feature","geometry":{"type":"Point","coordinates":[-80.8431,35.2271]},"properties":{"name":"Charlotte","state":"North Carolina","capital":false,"tier":1}},{"type":"Feature","geometry":{"type":"Point","coordinates":[-79.792,36.0726]},"properties":{"name":"Greensboro","state":"North Carolina","capital":false,"tier":3}},{"type":"Feature","geometry":{"type":"Point","coordinates":[-78.8986,35.994]},"properties":{"name":"Durham","state":"North Carolina","capital":false,"tier":2}},{"type":"Feature","geometry":{"type":"Point","coordinates":[-100.7837,46.8083]},"properties":{"name":"Bismarck","state":"North Dakota","capital":true,"tier":3}},{"type":"Feature","geometry":{"type":"Point","coordinates":[-96.7898,46.8772]},"properties":{"name":"Fargo","state":"North Dakota","capital":false,"tier":2}},{"type":"Feature","geometry":{"type":"Point","coordinates":[-82.9988,39.9612]},"properties":{"name":"Columbus","state":"Ohio","capital":true,"tier":1}},{"type":"Feature","geometry":{"type":"Point","coordinates":[-81.6944,41.4993]},"properties":{"name":"Cleveland","state":"Ohio","capital":false,"tier":1}},{"type":"Feature","geometry":{"type":"Point","coordinates":[-84.512,39.1031]},"properties":{"name":"Cincinnati","state":"Ohio","capital":false,"tier":1}},{"type":"Feature","geometry":{"type":"Point","coordinates":[-83.5379,41.6528]},"properties":{"name":"Toledo","state":"Ohio","capital":false,"tier":2}},{"type":"Feature","geometry":{"type":"Point","coordinates":[-81.519,41.0814]},"properties":{"name":"Akron","state":"Ohio","capital":false,"tier":3}},{"type":"Feature","geometry":{"type":"Point","coordinates":[-97.5164,35.4676]},"properties":{"name":"Oklahoma City","state":"Oklahoma","capital":true,"tier":1}},{"type":"Feature","geometry":{"type":"Point","coordinates":[-95.9928,36.154]},"properties":{"name":"Tulsa","state":"Oklahoma","capital":false,"tier":1}},{"type":"Feature","geometry":{"type":"Point","coordinates":[-97.4395,35.2226]},"properties":{"name":"Norman","state":"Oklahoma","capital":false,"tier":3}},{"type":"Feature","geometry":{"type":"Point","coordinates":[-123.0351,44.9429]},"properties":{"name":"Salem","state":"Oregon","capital":true,"tier":2}},{"type":"Feature","geometry":{"type":"Point","coordinates":[-122.6765,45.5152]},"properties":{"name":"Portland","state":"Oregon","capital":false,"tier":1}},{"type":"Feature","geometry":{"type":"Point","coordinates":[-123.0868,44.0521]},"properties":{"name":"Eugene","state":"Oregon","capital":false,"tier":3}},{"type":"Feature","geometry":{"type":"Point","coordinates":[-76.8867,40.2732]},"properties":{"name":"Harrisburg","state":"Pennsylvania","capital":true,"tier":2}},{"type":"Feature","geometry":{"type":"Point","coordinates":[-75.1652,39.9526]},"properties":{"name":"Philadelphia","state":"Pennsylvania","capital":false,"tier":1}},{"type":"Feature","geometry":{"type":"Point","coordinates":[-79.9959,40.4406]},"properties":{"name":"Pittsburgh","state":"Pennsylvania","capital":false,"tier":1}},{"type":"Feature","geometry":{"type":"Point","coordinates":[-75.4902,40.6084]},"properties":{"name":"Allentown","state":"Pennsylvania","capital":false,"tier":3}},{"type":"Feature","geometry":{"type":"Point","coordinates":[-71.4128,41.824]},"properties":{"name":"Providence","state":"Rhode Island","capital":true,"tier":2}},{"type":"Feature","geometry":{"type":"Point","coordinates":[-81.0348,34.0007]},"properties":{"name":"Columbia","state":"South Carolina","capital":true,"tier":2}},{"type":"Feature","geometry":{"type":"Point","coordinates":[-79.9311,32.7765]},"properties":{"name":"Charleston","state":"South Carolina","capital":false,"tier":2}},{"type":"Feature","geometry":{"type":"Point","coordinates":[-82.394,34.8526]},"properties":{"name":"Greenville","state":"South Carolina","capital":false,"tier":3}},{"type":"Feature","geometry":{"type":"Point","coordinates":[-100.3509,44.3683]},"properties":{"name":"Pierre","state":"South Dakota","capital":true,"tier":3}},{"type":"Feature","geometry":{"type":"Point","coordinates":[-96.7311,43.5446]},"properties":{"name":"Sioux Falls","state":"South Dakota","capital":false,"tier":2}},{"type":"Feature","geometry":{"type":"Point","coordinates":[-103.231,44.0805]},"properties":{"name":"Rapid City","state":"South Dakota","capital":false,"tier":3}},{"type":"Feature","geometry":{"type":"Point","coordinates":[-86.7816,36.1627]},"properties":{"name":"Nashville","state":"Tennessee","capital":true,"tier":1}},{"type":"Feature","geometry":{"type":"Point","coordinates":[-90.049,35.1495]},"properties":{"name":"Memphis","state":"Tennessee","capital":false,"tier":1}},{"type":"Feature","geometry":{"type":"Point","coordinates":[-83.9207,35.9606]},"properties":{"name":"Knoxville","state":"Tennessee","capital":false,"tier":2}},{"type":"Feature","geometry":{"type":"Point","coordinates":[-85.3097,35.0456]},"properties":{"name":"Chattanooga","state":"Tennessee","capital":false,"tier":3}},{"type":"Feature","geometry":{"type":"Point","coordinates":[-97.7431,30.2672]},"properties":{"name":"Austin","state":"Texas","capital":true,"tier":1}},{"type":"Feature","geometry":{"type":"Point","coordinates":[-95.3698,29.7604]},"properties":{"name":"Houston","state":"Texas","capital":false,"tier":1}},{"type":"Feature","geometry":{"type":"Point","coordinates":[-96.797,32.7767]},"properties":{"name":"Dallas","state":"Texas","capital":false,"tier":1}},{"type":"Feature","geometry":{"type":"Point","coordinates":[-98.4936,29.4241]},"properties":{"name":"San Antonio","state":"Texas","capital":false,"tier":1}},{"type":"Feature","geometry":{"type":"Point","coordinates":[-97.3308,32.7555]},"properties":{"name":"Fort Worth","state":"Texas","capital":false,"tier":2}},{"type":"Feature","geometry":{"type":"Point","coordinates":[-106.485,31.7619]},"properties":{"name":"El Paso","state":"Texas","capital":false,"tier":2}},{"type":"Feature","geometry":{"type":"Point","coordinates":[-111.891,40.7608]},"properties":{"name":"Salt Lake City","state":"Utah","capital":true,"tier":1}},{"type":"Feature","geometry":{"type":"Point","coordinates":[-111.6585,40.2338]},"properties":{"name":"Provo","state":"Utah","capital":false,"tier":3}},{"type":"Feature","geometry":{"type":"Point","coordinates":[-111.9738,41.223]},"properties":{"name":"Ogden","state":"Utah","capital":false,"tier":3}},{"type":"Feature","geometry":{"type":"Point","coordinates":[-72.5754,44.2601]},"properties":{"name":"Montpelier","state":"Vermont","capital":true,"tier":3}},{"type":"Feature","geometry":{"type":"Point","coordinates":[-73.2121,44.4759]},"properties":{"name":"Burlington","state":"Vermont","capital":false,"tier":2}},{"type":"Feature","geometry":{"type":"Point","coordinates":[-77.436,37.5407]},"properties":{"name":"Richmond","state":"Virginia","capital":true,"tier":1}},{"type":"Feature","geometry":{"type":"Point","coordinates":[-75.978,36.8529]},"properties":{"name":"Virginia Beach","state":"Virginia","capital":false,"tier":2}},{"type":"Feature","geometry":{"type":"Point","coordinates":[-76.2859,36.8508]},"properties":{"name":"Norfolk","state":"Virginia","capital":false,"tier":3}},{"type":"Feature","geometry":{"type":"Point","coordinates":[-122.9007,47.0379]},"properties":{"name":"Olympia","state":"Washington","capital":true,"tier":3}},{"type":"Feature","geometry":{"type":"Point","coordinates":[-122.3321,47.6062]},"properties":{"name":"Seattle","state":"Washington","capital":false,"tier":1}},{"type":"Feature","geometry":{"type":"Point","coordinates":[-117.426,47.6588]},"properties":{"name":"Spokane","state":"Washington","capital":false,"tier":2}},{"type":"Feature","geometry":{"type":"Point","coordinates":[-122.4443,47.2529]},"properties":{"name":"Tacoma","state":"Washington","capital":false,"tier":3}},{"type":"Feature","geometry":{"type":"Point","coordinates":[-81.6326,38.3498]},"properties":{"name":"Charleston","state":"West Virginia","capital":true,"tier":2}},{"type":"Feature","geometry":{"type":"Point","coordinates":[-82.4452,38.4192]},"properties":{"name":"Huntington","state":"West Virginia","capital":false,"tier":3}},{"type":"Feature","geometry":{"type":"Point","coordinates":[-89.4012,43.0731]},"properties":{"name":"Madison","state":"Wisconsin","capital":true,"tier":2}},{"type":"Feature","geometry":{"type":"Point","coordinates":[-87.9065,43.0389]},"properties":{"name":"Milwaukee","state":"Wisconsin","capital":false,"tier":1}},{"type":"Feature","geometry":{"type":"Point","coordinates":[-88.0133,44.5133]},"properties":{"name":"Green Bay","state":"Wisconsin","capital":false,"tier":3}},{"type":"Feature","geometry":{"type":"Point","coordinates":[-104.8202,41.14]},"properties":{"name":"Cheyenne","state":"Wyoming","capital":true,"tier":2}},{"type":"Feature","geometry":{"type":"Point","coordinates":[-106.3131,42.8666]},"properties":{"name":"Casper","state":"Wyoming","capital":false,"tier":3}},{"type":"Feature","geometry":{"type":"Point","coordinates":[-77.0369,38.9072]},"properties":{"name":"Washington","state":"District of Columbia","capital":true,"tier":1}}]}